[
  {
    "id": "1",
    "title": "Appartement cosy au cœur de Paris",
    "city": "Paris",
    "country": "France",
    "type": "appartement",
    "price": 120,
    "rating": 4.8,
    "reviews": 143,
    "rooms": 2,
    "lat": 48.8566,
    "lng": 2.3522,
    "cover": "listing-1.jpg"
  },
  {
    "id": "2",
    "title": "Studio lumineux Montmartre",
    "city": "Paris",
    "country": "France",
    "type": "studio",
    "price": 95,
    "rating": 4.6,
    "reviews": 89,
    "rooms": 1,
    "lat": 48.8867,
    "lng": 2.3431,
    "cover": "listing-2.jpg"
  },
  {
    "id": "3",
    "title": "Loft moderne Marais",
    "city": "Paris",
    "country": "France",
    "type": "loft",
    "price": 180,
    "rating": 4.9,
    "reviews": 156,
    "rooms": 2,
    "lat": 48.8584,
    "lng": 2.3622,
    "cover": "listing-3.jpg"
  },
  {
    "id": "4",
    "title": "Appartement familial Bastille",
    "city": "Paris",
    "country": "France",
    "type": "appartement",
    "price": 160,
    "rating": 4.7,
    "reviews": 124,
    "rooms": 3,
    "lat": 48.8534,
    "lng": 2.3688,
    "cover": "listing-4.jpg"
  },
  {
    "id": "5",
    "title": "Studio design Champs-Élysées",
    "city": "Paris",
    "country": "France",
    "type": "studio",
    "price": 110,
    "rating": 4.5,
    "reviews": 98,
    "rooms": 1,
    "lat": 48.8698,
    "lng": 2.3078,
    "cover": "listing-5.jpg"
  },
  {
    "id": "6",
    "title": "Maison avec jardin Neuilly",
    "city": "Paris",
    "country": "France",
    "type": "maison",
    "price": 280,
    "rating": 4.9,
    "reviews": 67,
    "rooms": 4,
    "lat": 48.8846,
    "lng": 2.2686,
    "cover": "listing-6.jpg"
  },
  {
    "id": "7",
    "title": "Appartement vue Tour Eiffel",
    "city": "Paris",
    "country": "France",
    "type": "appartement",
    "price": 220,
    "rating": 5.0,
    "reviews": 89,
    "rooms": 2,
    "lat": 48.8606,
    "lng": 2.2978,
    "cover": "listing-7.jpg"
  },
  {
    "id": "8",
    "title": "Loft industriel Oberkampf",
    "city": "Paris",
    "country": "France",
    "type": "loft",
    "price": 150,
    "rating": 4.6,
    "reviews": 112,
    "rooms": 2,
    "lat": 48.8644,
    "lng": 2.3767,
    "cover": "listing-8.jpg"
  },
  {
    "id": "9",
    "title": "Studio étudiant Sorbonne",
    "city": "Paris",
    "country": "France",
    "type": "studio",
    "price": 85,
    "rating": 4.4,
    "reviews": 143,
    "rooms": 1,
    "lat": 48.8462,
    "lng": 2.3438,
    "cover": "listing-9.jpg"
  },
  {
    "id": "10",
    "title": "Penthouse Saint-Germain",
    "city": "Paris",
    "country": "France",
    "type": "appartement",
    "price": 350,
    "rating": 5.0,
    "reviews": 45,
    "rooms": 3,
    "lat": 48.8534,
    "lng": 2.3349,
    "cover": "listing-10.jpg"
  },
  {
    "id": "11",
    "title": "Appartement vue mer Nice",
    "city": "Nice",
    "country": "France",
    "type": "appartement",
    "price": 180,
    "rating": 4.9,
    "reviews": 78,
    "rooms": 3,
    "lat": 43.7102,
    "lng": 7.2620,
    "cover": "listing-1.jpg"
  },
  {
    "id": "12",
    "title": "Studio Promenade des Anglais",
    "city": "Nice",
    "country": "France",
    "type": "studio",
    "price": 95,
    "rating": 4.6,
    "reviews": 102,
    "rooms": 1,
    "lat": 43.6951,
    "lng": 7.2658,
    "cover": "listing-2.jpg"
  },
  {
    "id": "13",
    "title": "Villa avec piscine Cimiez",
    "city": "Nice",
    "country": "France",
    "type": "villa",
    "price": 420,
    "rating": 5.0,
    "reviews": 34,
    "rooms": 5,
    "lat": 43.7184,
    "lng": 7.2755,
    "cover": "listing-3.jpg"
  },
  {
    "id": "14",
    "title": "Loft moderne Vieux-Nice",
    "city": "Nice",
    "country": "France",
    "type": "loft",
    "price": 140,
    "rating": 4.7,
    "reviews": 89,
    "rooms": 2,
    "lat": 43.6966,
    "lng": 7.2751,
    "cover": "listing-4.jpg"
  },
  {
    "id": "15",
    "title": "Appartement familial Libération",
    "city": "Nice",
    "country": "France",
    "type": "appartement",
    "price": 160,
    "rating": 4.8,
    "reviews": 67,
    "rooms": 3,
    "lat": 43.7031,
    "lng": 7.2661,
    "cover": "listing-5.jpg"
  },
  {
    "id": "16",
    "title": "Studio terrasse Port",
    "city": "Nice",
    "country": "France",
    "type": "studio",
    "price": 110,
    "rating": 4.5,
    "reviews": 124,
    "rooms": 1,
    "lat": 43.6938,
    "lng": 7.2818,
    "cover": "listing-6.jpg"
  },
  {
    "id": "17",
    "title": "Maison jardin Mont-Boron",
    "city": "Nice",
    "country": "France",
    "type": "maison",
    "price": 290,
    "rating": 4.9,
    "reviews": 56,
    "rooms": 4,
    "lat": 43.6971,
    "lng": 7.2918,
    "cover": "listing-7.jpg"
  },
  {
    "id": "18",
    "title": "Appartement standing Musiciens",
    "city": "Nice",
    "country": "France",
    "type": "appartement",
    "price": 200,
    "rating": 4.8,
    "reviews": 91,
    "rooms": 2,
    "lat": 43.7013,
    "lng": 7.2583,
    "cover": "listing-8.jpg"
  },
  {
    "id": "19",
    "title": "Loft artistique Ariane",
    "city": "Nice",
    "country": "France",
    "type": "loft",
    "price": 125,
    "rating": 4.6,
    "reviews": 78,
    "rooms": 2,
    "lat": 43.7339,
    "lng": 7.2595,
    "cover": "listing-9.jpg"
  },
  {
    "id": "20",
    "title": "Penthouse panoramique Carré d'Or",
    "city": "Nice",
    "country": "France",
    "type": "appartement",
    "price": 380,
    "rating": 5.0,
    "reviews": 42,
    "rooms": 4,
    "lat": 43.6978,
    "lng": 7.2707,
    "cover": "listing-10.jpg"
  },
  {
    "id": "21",
    "title": "Villa moderne avec piscine à Barcelone",
    "city": "Barcelona",
    "country": "Espagne",
    "type": "villa",
    "price": 280,
    "rating": 4.9,
    "reviews": 87,
    "rooms": 5,
    "lat": 41.3851,
    "lng": 2.1734,
    "cover": "listing-1.jpg"
  },
  {
    "id": "22",
    "title": "Studio Sagrada Familia",
    "city": "Barcelona",
    "country": "Espagne",
    "type": "studio",
    "price": 85,
    "rating": 4.5,
    "reviews": 201,
    "rooms": 1,
    "lat": 41.4036,
    "lng": 2.1744,
    "cover": "listing-2.jpg"
  },
  {
    "id": "23",
    "title": "Loft design Eixample",
    "city": "Barcelona",
    "country": "Espagne",
    "type": "loft",
    "price": 165,
    "rating": 4.8,
    "reviews": 134,
    "rooms": 2,
    "lat": 41.3950,
    "lng": 2.1619,
    "cover": "listing-3.jpg"
  },
  {
    "id": "24",
    "title": "Appartement Barrio Gótico",
    "city": "Barcelona",
    "country": "Espagne",
    "type": "appartement",
    "price": 145,
    "rating": 4.7,
    "reviews": 112,
    "rooms": 2,
    "lat": 41.3825,
    "lng": 2.1769,
    "cover": "listing-4.jpg"
  },
  {
    "id": "25",
    "title": "Maison plage Barceloneta",
    "city": "Barcelona",
    "country": "Espagne",
    "type": "maison",
    "price": 220,
    "rating": 4.9,
    "reviews": 98,
    "rooms": 4,
    "lat": 41.3778,
    "lng": 2.1899,
    "cover": "listing-5.jpg"
  },
  {
    "id": "26",
    "title": "Studio moderne Gràcia",
    "city": "Barcelona",
    "country": "Espagne",
    "type": "studio",
    "price": 90,
    "rating": 4.6,
    "reviews": 156,
    "rooms": 1,
    "lat": 41.4036,
    "lng": 2.1588,
    "cover": "listing-6.jpg"
  },
  {
    "id": "27",
    "title": "Penthouse Park Güell",
    "city": "Barcelona",
    "country": "Espagne",
    "type": "appartement",
    "price": 310,
    "rating": 5.0,
    "reviews": 67,
    "rooms": 3,
    "lat": 41.4145,
    "lng": 2.1527,
    "cover": "listing-7.jpg"
  },
  {
    "id": "28",
    "title": "Loft terrasse Poblenou",
    "city": "Barcelona",
    "country": "Espagne",
    "type": "loft",
    "price": 175,
    "rating": 4.8,
    "reviews": 89,
    "rooms": 2,
    "lat": 41.4024,
    "lng": 2.2004,
    "cover": "listing-8.jpg"
  },
  {
    "id": "29",
    "title": "Appartement familial Sants",
    "city": "Barcelona",
    "country": "Espagne",
    "type": "appartement",
    "price": 130,
    "rating": 4.6,
    "reviews": 124,
    "rooms": 3,
    "lat": 41.3788,
    "lng": 2.1396,
    "cover": "listing-9.jpg"
  },
  {
    "id": "30",
    "title": "Villa luxe Pedralbes",
    "city": "Barcelona",
    "country": "Espagne",
    "type": "villa",
    "price": 450,
    "rating": 5.0,
    "reviews": 45,
    "rooms": 6,
    "lat": 41.3926,
    "lng": 2.1111,
    "cover": "listing-10.jpg"
  },
  {
    "id": "31",
    "title": "Maison de charme Lyon",
    "city": "Lyon",
    "country": "France",
    "type": "maison",
    "price": 135,
    "rating": 4.7,
    "reviews": 98,
    "rooms": 3,
    "lat": 45.7640,
    "lng": 4.8357,
    "cover": "listing-1.jpg"
  },
  {
    "id": "32",
    "title": "Loft Confluence",
    "city": "Lyon",
    "country": "France",
    "type": "loft",
    "price": 155,
    "rating": 4.8,
    "reviews": 112,
    "rooms": 2,
    "lat": 45.7408,
    "lng": 4.8177,
    "cover": "listing-2.jpg"
  },
  {
    "id": "33",
    "title": "Studio Vieux Lyon",
    "city": "Lyon",
    "country": "France",
    "type": "studio",
    "price": 80,
    "rating": 4.5,
    "reviews": 156,
    "rooms": 1,
    "lat": 45.7627,
    "lng": 4.8270,
    "cover": "listing-3.jpg"
  },
  {
    "id": "34",
    "title": "Appartement Presqu'île",
    "city": "Lyon",
    "country": "France",
    "type": "appartement",
    "price": 145,
    "rating": 4.9,
    "reviews": 89,
    "rooms": 2,
    "lat": 45.7578,
    "lng": 4.8320,
    "cover": "listing-4.jpg"
  },
  {
    "id": "35",
    "title": "Maison jardin Croix-Rousse",
    "city": "Lyon",
    "country": "France",
    "type": "maison",
    "price": 195,
    "rating": 4.7,
    "reviews": 67,
    "rooms": 4,
    "lat": 45.7750,
    "lng": 4.8320,
    "cover": "listing-5.jpg"
  },
  {
    "id": "36",
    "title": "Loft industriel Guillotière",
    "city": "Lyon",
    "country": "France",
    "type": "loft",
    "price": 125,
    "rating": 4.6,
    "reviews": 134,
    "rooms": 2,
    "lat": 45.7488,
    "lng": 4.8420,
    "cover": "listing-6.jpg"
  },
  {
    "id": "37",
    "title": "Penthouse Part-Dieu",
    "city": "Lyon",
    "country": "France",
    "type": "appartement",
    "price": 240,
    "rating": 4.9,
    "reviews": 78,
    "rooms": 3,
    "lat": 45.7606,
    "lng": 4.8532,
    "cover": "listing-7.jpg"
  },
  {
    "id": "38",
    "title": "Studio moderne Bellecour",
    "city": "Lyon",
    "country": "France",
    "type": "studio",
    "price": 95,
    "rating": 4.5,
    "reviews": 124,
    "rooms": 1,
    "lat": 45.7578,
    "lng": 4.8342,
    "cover": "listing-8.jpg"
  },
  {
    "id": "39",
    "title": "Appartement familial Monplaisir",
    "city": "Lyon",
    "country": "France",
    "type": "appartement",
    "price": 140,
    "rating": 4.7,
    "reviews": 102,
    "rooms": 3,
    "lat": 45.7502,
    "lng": 4.8720,
    "cover": "listing-9.jpg"
  },
  {
    "id": "40",
    "title": "Villa parc Tête d'Or",
    "city": "Lyon",
    "country": "France",
    "type": "villa",
    "price": 320,
    "rating": 5.0,
    "reviews": 56,
    "rooms": 5,
    "lat": 45.7797,
    "lng": 4.8578,
    "cover": "listing-10.jpg"
  },
  {
    "id": "41",
    "title": "Studio design Marseille",
    "city": "Marseille",
    "country": "France",
    "type": "studio",
    "price": 75,
    "rating": 4.5,
    "reviews": 89,
    "rooms": 1,
    "lat": 43.2965,
    "lng": 5.3698,
    "cover": "listing-1.jpg"
  },
  {
    "id": "42",
    "title": "Loft Vieux-Port",
    "city": "Marseille",
    "country": "France",
    "type": "loft",
    "price": 135,
    "rating": 4.8,
    "reviews": 112,
    "rooms": 2,
    "lat": 43.2946,
    "lng": 5.3745,
    "cover": "listing-2.jpg"
  },
  {
    "id": "43",
    "title": "Appartement vue Calanques",
    "city": "Marseille",
    "country": "France",
    "type": "appartement",
    "price": 165,
    "rating": 4.9,
    "reviews": 78,
    "rooms": 3,
    "lat": 43.2145,
    "lng": 5.4305,
    "cover": "listing-3.jpg"
  },
  {
    "id": "44",
    "title": "Maison Endoume",
    "city": "Marseille",
    "country": "France",
    "type": "maison",
    "price": 185,
    "rating": 4.7,
    "reviews": 94,
    "rooms": 4,
    "lat": 43.2776,
    "lng": 5.3535,
    "cover": "listing-4.jpg"
  },
  {
    "id": "45",
    "title": "Studio Canebière",
    "city": "Marseille",
    "country": "France",
    "type": "studio",
    "price": 70,
    "rating": 4.4,
    "reviews": 156,
    "rooms": 1,
    "lat": 43.2961,
    "lng": 5.3750,
    "cover": "listing-5.jpg"
  },
  {
    "id": "46",
    "title": "Loft moderne Joliette",
    "city": "Marseille",
    "country": "France",
    "type": "loft",
    "price": 145,
    "rating": 4.8,
    "reviews": 87,
    "rooms": 2,
    "lat": 43.3053,
    "lng": 5.3660,
    "cover": "listing-6.jpg"
  },
  {
    "id": "47",
    "title": "Villa piscine Les Goudes",
    "city": "Marseille",
    "country": "France",
    "type": "villa",
    "price": 290,
    "rating": 4.9,
    "reviews": 67,
    "rooms": 5,
    "lat": 43.2117,
    "lng": 5.3491,
    "cover": "listing-7.jpg"
  },
  {
    "id": "48",
    "title": "Appartement Prado",
    "city": "Marseille",
    "country": "France",
    "type": "appartement",
    "price": 125,
    "rating": 4.6,
    "reviews": 124,
    "rooms": 2,
    "lat": 43.2673,
    "lng": 5.3919,
    "cover": "listing-8.jpg"
  },
  {
    "id": "49",
    "title": "Penthouse Corniche",
    "city": "Marseille",
    "country": "France",
    "type": "appartement",
    "price": 260,
    "rating": 5.0,
    "reviews": 45,
    "rooms": 3,
    "lat": 43.2745,
    "lng": 5.3571,
    "cover": "listing-9.jpg"
  },
  {
    "id": "50",
    "title": "Maison Calanques Sormiou",
    "city": "Marseille",
    "country": "France",
    "type": "maison",
    "price": 210,
    "rating": 4.8,
    "reviews": 89,
    "rooms": 4,
    "lat": 43.2093,
    "lng": 5.4202,
    "cover": "listing-10.jpg"
  },
  {
    "id": "51",
    "title": "Appartement Bordeaux centre",
    "city": "Bordeaux",
    "country": "France",
    "type": "appartement",
    "price": 125,
    "rating": 4.7,
    "reviews": 112,
    "rooms": 2,
    "lat": 44.8378,
    "lng": -0.5792,
    "cover": "listing-1.jpg"
  },
  {
    "id": "52",
    "title": "Loft Chartrons",
    "city": "Bordeaux",
    "country": "France",
    "type": "loft",
    "price": 155,
    "rating": 4.8,
    "reviews": 98,
    "rooms": 2,
    "lat": 44.8534,
    "lng": -0.5684,
    "cover": "listing-2.jpg"
  },
  {
    "id": "53",
    "title": "Studio Saint-Pierre",
    "city": "Bordeaux",
    "country": "France",
    "type": "studio",
    "price": 85,
    "rating": 4.5,
    "reviews": 134,
    "rooms": 1,
    "lat": 44.8383,
    "lng": -0.5698,
    "cover": "listing-3.jpg"
  },
  {
    "id": "54",
    "title": "Maison vignoble Mérignac",
    "city": "Bordeaux",
    "country": "France",
    "type": "maison",
    "price": 195,
    "rating": 4.9,
    "reviews": 78,
    "rooms": 4,
    "lat": 44.8350,
    "lng": -0.6530,
    "cover": "listing-4.jpg"
  },
  {
    "id": "55",
    "title": "Appartement Victoire",
    "city": "Bordeaux",
    "country": "France",
    "type": "appartement",
    "price": 140,
    "rating": 4.7,
    "reviews": 89,
    "rooms": 2,
    "lat": 44.8310,
    "lng": -0.5730,
    "cover": "listing-5.jpg"
  },
  {
    "id": "56",
    "title": "Loft Darwin",
    "city": "Bordeaux",
    "country": "France",
    "type": "loft",
    "price": 135,
    "rating": 4.6,
    "reviews": 124,
    "rooms": 2,
    "lat": 44.8480,
    "lng": -0.5485,
    "cover": "listing-6.jpg"
  },
  {
    "id": "57",
    "title": "Villa Caudéran",
    "city": "Bordeaux",
    "country": "France",
    "type": "villa",
    "price": 280,
    "rating": 4.9,
    "reviews": 67,
    "rooms": 5,
    "lat": 44.8520,
    "lng": -0.6050,
    "cover": "listing-7.jpg"
  },
  {
    "id": "58",
    "title": "Penthouse Bassins à Flot",
    "city": "Bordeaux",
    "country": "France",
    "type": "appartement",
    "price": 220,
    "rating": 5.0,
    "reviews": 56,
    "rooms": 3,
    "lat": 44.8680,
    "lng": -0.5590,
    "cover": "listing-8.jpg"
  },
  {
    "id": "59",
    "title": "Studio moderne Capucins",
    "city": "Bordeaux",
    "country": "France",
    "type": "studio",
    "price": 90,
    "rating": 4.5,
    "reviews": 102,
    "rooms": 1,
    "lat": 44.8295,
    "lng": -0.5645,
    "cover": "listing-9.jpg"
  },
  {
    "id": "60",
    "title": "Maison jardin Pessac",
    "city": "Bordeaux",
    "country": "France",
    "type": "maison",
    "price": 175,
    "rating": 4.8,
    "reviews": 87,
    "rooms": 4,
    "lat": 44.8060,
    "lng": -0.6300,
    "cover": "listing-10.jpg"
  }
]
